[{"name":"NOTICIAS Y DEPORTES 1330 (Los Ángeles) - 1330 AM - KWKW - Lotus Communications - Los Ángeles, California, EUA","lat":34.05589721073465,"lng":-118.24284553527832,"url":"https://playerservices.streamtheworld.com/api/livestream-redirect/KWKWAMAAC.aac","mime":"audio/aac","favicon":"https://cdn-profiles.tunein.com/s26289/images/logod.png","homepage":"https://www.tuligaradio.com/"},{"name":"KQED 128 AAC","lat":37.77462410180895,"lng":-122.45304680084638,"url":"https://hls.kqed.org/hls/kqed_app/playlist.m3u8","mime":"audio/x-mpegurl","favicon":"https://asset.brandfetch.io/idQPhN-lSw/idojwfAi5K.png","homepage":"https://www.kqed.org/radio"},{"name":"KVGC - HomeTown Radio for Amador & Calaveras Counties","lat":38.34974582619075,"lng":-120.77500909566882,"url":"https://ais-sa1.streamon.fm/7004_24k.aac","mime":"audio/aac","favicon":"https://isteam.wsimg.com/ip/d00b1cdf-991b-41ca-8cd2-0b1c0d4bb8d5/titlecut.png","homepage":"https://kvgcradio.com/"},{"name":"Noticias MVS (Mexicali) - 1120 AM - XEMX-AM - MVS Radio - Mexicali, Baja California","lat":32.642665651234104,"lng":-115.47463417053224,"url":"https://playerservices.streamtheworld.com/api/livestream-redirect/XEMXAAC.aac","mime":"audio/aac","favicon":"https://upload.wikimedia.org/wikipedia/en/f/f7/XEMX_Noticias1120Mexicali_logo.jpg","homepage":"https://noticias1120am.com/"},{"name":"Sports 1140 KHTK","lat":38.54472849828922,"lng":-121.5087890625,"url":"https://bonneville.cdnstream1.com/2616_48.aac","mime":"audio/aac","favicon":"https://cdn.sactownsports.com/khtk2/wp-content/uploads/2022/06/cropped-square-512-180x180.png","homepage":"https://sactownsports.com/"}]